No,호선,역명,도로명주소,지번주소,경도,위도,상태
1,1,서울,서울특별시 중구 세종대로 지하2(남대문로 5가),서울특별시 중구 남대문로5가 73-6 서울역(1호선),126.9725544,37.55715964,정좌표
2,1,시청,서울특별시 중구 세종대로 지하101(정동),서울특별시 중구 정동 5-5 시청역(1호선),126.9769829,37.56543794,정좌표
3,1,종각,서울특별시 종로구 종로 지하55(종로1가),서울특별시 종로구 종로1가 54 종각역(1호선),126.98324,37.57021442,정좌표
4,1,종로3가,서울특별시 종로구 종로 지하129(종로3가),서울특별시 종로구 종로3가 10-5 종로3가역(1호선),126.9920295,37.57042617,정좌표
5,1,종로5가,서울특별시 종로구 종로 지하216(종로5가),서울특별시 종로구 종로5가 82-1 종로5가역(1호선),127.0019164,37.57090761,정좌표
6,1,동대문,서울특별시 종로구 종로 지하302(창신동),서울특별시 종로구 창신동 492-1 동대문역(1호선),127.0111674,37.57177786,정좌표
7,1,신설동,서울특별시 동대문구 왕산로 지하1(신설동),서울특별시 동대문구 신설동 76-5 신설동역(1호선),127.0247022,37.57532017,정좌표
8,1,제기동,서울특별시 동대문구 왕산로 지하93(제기동),서울특별시 동대문구 제기동 65 제기동역(1호선),127.0346904,37.57819696,정좌표
9,1,청량리(서울시립대입구),서울특별시 동대문구 왕산로 지하205(전농동),서울특별시 동대문구 전농동 620-69 청량리역(1호선),127.0450859,37.58023288,정좌표
10,1,동묘앞,서울특별시 종로구 종로 359(숭인동),서울특별시 종로구 숭인동 117 동묘앞역(1호선),127.0167513,37.57337253,정좌표
11,2,시청,서울특별시 중구 서소문로 지하127(서소문동),서울특별시 중구 서소문동 90-1 시청역(2호선),126.9753894,37.56357977,정좌표
12,2,을지로입구,서울특별시 중구 을지로 지하42(을지로1가),서울특별시 중구 을지로1가 100-1 을지로입구역(2호선),126.9823728,37.5660509,정좌표
13,2,을지로3가,서울특별시 중구 을지로 지하106(을지로3가),서울특별시 중구 을지로3가 347-3 을지로3가역(2호선),126.9903083,37.5662657,정좌표
14,2,을지로4가,서울특별시 중구 을지로 지하178(을지로4가),서울특별시 중구 을지로4가 267-1 을지로4가역(2호선),126.9978528,37.56663604,정좌표
15,2,동대문역사문화공원(DDP),서울특별시 중구 을지로 지하279(을지로7가),서울특별시 중구 을지로 7가 112-3 동대문역사문화공원역(2호선),127.0091315,37.56558951,정좌표
16,2,신당,서울특별시 중구 퇴계로 지하431-1(신당동),서울특별시 중구 신당동 99 신당역(2호선),127.0195407,37.56565486,정좌표
17,2,상왕십리,서울특별시 성동구 왕십리로 지하374(하왕십리동),서울특별시 성동구 하왕십리동 946-14 상왕십리역(2호선),127.0290314,37.56446844,정좌표
18,2,왕십리(성동구청),서울특별시 성동구 왕십리로 지하300(행당동),서울특별시 성동구 행당동 192 왕십리역(2호선),127.0366557,37.5612222,정좌표
19,2,한양대,서울특별시 성동구 왕십리로 206(행당동),서울특별시 성동구 행당동 산17 한양대역(2호선),127.0435843,37.55557735,정좌표
20,2,뚝섬,서울특별시 성동구 아차산로 18(성수동1가),서울특별시 성동구 성수동1가 656-745 뚝섬역(2호선),127.0473648,37.54718798,정좌표
21,2,성수,서울특별시 성동구 아차산로 100(성수동2가),서울특별시 성동구 성수동2가 300-1 성수역(2호선),127.0560905,37.54450235,정좌표
22,2,건대입구,서울특별시 광진구 아차산로 243(화양동),서울특별시 광진구 화양동 7-3 2호선 건대입구역(2호선),127.0691731,37.54041928,정좌표
23,2,구의(광진구청),서울특별시 광진구 아차산로 384-1(구의동),서울특별시 광진구 구의동 245-24 구의역(2호선),127.0861789,37.5371541,정좌표
24,2,강변(동서울터미널),서울특별시 광진구 강변역로 53(구의동),서울특별시 광진구 구의동 546-6 강변역(2호선),127.0946641,37.535169,정좌표
25,2,잠실나루,서울특별시 송파구 오금로 20(신천동),서울특별시 송파구 신천동 15 잠실나루역(2호선),127.1038113,37.52068702,정좌표
26,2,잠실(송파구청),서울특별시 송파구 올림픽로 지하265(신천동),서울특별시 송파구 신천동 8 잠실역(2호선),127.1018579,37.51385952,정좌표
27,2,잠실새내,서울특별시 송파구 올림픽로 지하140(잠실동),서울특별시 송파구 잠실동 33 잠실새내역(2호선),127.086374,37.51156751,정좌표
28,2,종합운동장,서울특별시 송파구 올림픽로 지하23(잠실동),서울특별시 송파구 잠실동 122 종합운동장역(2호선),127.0733558,37.51096913,정좌표
29,2,삼성(무역센터),서울특별시 강남구 테헤란로 지하538(삼성동),서울특별시 강남구 삼성동 172-66 삼성역(2호선),127.0630728,37.50886175,정좌표
30,2,선릉,서울특별시 강남구 테헤란로 지하340(삼성동),서울특별시 강남구 삼성동 172-66 선릉역(2호선),127.0489422,37.50450248,정좌표
31,2,역삼,서울특별시 강남구 테헤란로 지하156(역삼동),서울특별시 강남구 역삼동 804 역삼역(2호선),127.0366184,37.50071631,정좌표
32,2,강남,서울특별시 강남구 강남대로 지하396(역삼동),서울특별시 강남구 역삼동 858 강남역(2호선),127.0283077,37.49816412,정좌표
33,2,"교대(법원, 검찰청)",서울특별시 서초구 서초대로 지하294(서초동),서울특별시 서초구 서초동 1748-4 교대역(2호선),127.0141557,37.49357744,정좌표
34,2,서초,서울특별시 서초구 서초대로 지하233(서초동),서울특별시 서초구 서초동 1748-5 서초역(2호선),127.0075806,37.49182303,정좌표
35,2,방배,서울특별시 서초구 방배로 지하80(방배동),서울특별시 서초구 방배동 912-14 방배역(2호선),126.9976947,37.48143605,정좌표
36,2,사당,서울특별시 동작구 남부순환로 지하2089(사당동),서울특별시 동작구 사당동 1129 사당역(2호선),126.981409,37.47652314,정좌표
37,2,낙성대(강감찬),서울특별시 관악구 남부순환로 지하1928(봉천동),서울특별시 관악구 봉천동 1693-39 낙성대역(2호선),126.9634097,37.4770647,정좌표
38,2,서울대입구(관악구청),서울특별시 관악구 남부순환로 지하1822(봉천동),서울특별시 관악구 봉천동 979-2 서울대입구역(2호선),126.9526454,37.48115257,정좌표
39,2,봉천,서울특별시 관악구 남부순환로 지하1721(봉천동),서울툭별시 관악구 봉천동 979-7 봉천역(2호선),126.9414955,37.48255608,정좌표
40,2,신림,서울특별시 관악구 남부순환로 지하1614(신림동),서울특별시 관악구 신림동 1467-10 신림역(2호선),126.9298018,37.48421505,정좌표
41,2,신대방,서울특별시 동작구 대림로 2(신대방동),서울특별시 동작구 신대방동 643-1 신대방역(2호선),126.9131767,37.487578,정좌표
42,2,구로디지털단지,서울특별시 구로구 도림천로 477(구로동),서울특별시 구로구 구로동 810-3 구로디지털단지역(2호선),126.9014944,37.48531441,정좌표
43,2,대림(구로구청),서울특별시 구로구 도림천로 351(구로동),서울특별시 구로구 구로동 1204 대림역(2호선),126.8949465,37.49331096,정좌표
44,2,신도림,서울특별시 구로구 새말로 지하 117-21(신도림동),서울특별시 구로구 신도림동 460-26 신도림역(2호선),126.8910802,37.50876967,정좌표
45,2,문래,서울특별시 영등포구 당산로 지하28(문래동3가),서울특별시 영등포구 문래동3가 68-1 문래역(2호선),126.8947627,37.51792145,정좌표
46,2,영등포구청,서울특별시 영등포구 당산로 지하121(당산동3가),서울특별시 영등포구 당산동3가 270-1 영등포구청역(2호선),126.8966267,37.52569955,정좌표
47,2,당산,서울특별시 영등포구 당산로 229(당산동6가),서울특별시 영등포구 당산동 6가 323-1 당산역(2호선),126.9027306,37.53495697,정좌표
48,2,합정,서울특별시 마포구 양화로 지하55(서교동),서울특별시 마포구 서교동 393 합정역(2호선),126.9146381,37.55011534,정좌표
49,2,홍대입구,서울특별시 마포구 양화로 지하160(동교동),서울특별시 마포구 동교동 165 홍대입구역(2호선),126.9236745,37.5568906,정좌표
50,2,신촌(지하),서울특별시 마포구 신촌로 지하90(노고산동),서울특별시 마포구 노고산동 31-11 신촌역(2호선),126.9355398,37.55531306,정좌표
51,2,이대,서울특별시 마포구 신촌로 지하180(염리동),서울특별시 마포구 염리동 8-85 이대역(2호선),126.9454799,37.55650037,정좌표
52,2,아현,서울특별시 마포구 신촌로 지하270(아현동),서울특별시 마포구 아현동 354-23 아현역(2호선),126.9560335,37.55735734,정좌표
53,2,충정로(경기대입구),서울특별시 서대문구 서소문로 지하17(충정로3가),서울특별시 서대문구 충정로3가 319-1 충정로역(2호선),126.964474,37.55983858,정좌표
54,2,용답,서울특별시 성동구 용답길 86(용답동),서울특별시 성동구 용답동 127 용답역(2호선),127.0507293,37.56200552,정좌표
55,2,신답,서울특별시 성동구 천호대로 232(용답동),서울특별시 성동구 용답동 129-2 신답역(2호선),127.0468199,37.56999122,정좌표
56,2,신설동,서울특별시 동대문구 왕산로 지하 1(신설동),서울특별시 동대문구 신설동 76-5 신설동역(2호선),127.0247022,37.57532017,정좌표
57,2,도림천,서울특별시 구로구 경인로67길 160(신도림동),서울특별시 구로구 신도림동 323-16 도림천역(2호선),126.8827017,37.51444075,정좌표
58,2,양천구청,서울특별시 양천구 목동로3길 지하33(신정동),서울특별시 양천구 신정동 276-7 양천구청역(2호선),126.8660642,37.51269748,정좌표
59,2,신정네거리,서울특별시 양천구 중앙로 지하261(신정동),서울특별시 양천구 신정동 1231 신정네거리역(2호선),126.8527775,37.51963791,정좌표
60,2,용두(동대문구청),서울특별시 동대문구 천호대로 지하129(용두동),서울특별시 동대문구 용두동 47-1 용두역(2호선),127.0380308,37.57393769,정좌표
61,3,지축,경기도 고양시 덕양구 삼송로 300(지축동),경기도 고양시 덕양구 지축동 818-64 지축역(3호선),126.9099438,37.64976655,정좌표
62,3,구파발,서울특별시 은평구 진관2로 지하15-25 (진관동),서울특별시 은평구 진관동 67-26 구파발역(3호선),126.9187533,37.6368548,정좌표
63,3,연신내,서울특별시 은평구 통일로 지하849(갈현동),서울특별시 은평구 갈현동 397 연신내역(3호선),126.9211667,37.61896948,정좌표
64,3,불광,서울특별시 은평구 통일로 지하723-1(대조동),서울특별시 은평구 대조동 13-10 불광역(3호선),126.9299856,37.61020634,정좌표
65,3,녹번,서울특별시 은평구 통일로 지하602-1(녹번동),서울특별시 은평구 녹번동 55 녹번역(3호선),126.9360125,37.60073068,정좌표
66,3,홍제,서울특별시 서대문구 통일로 지하440-1(홍제동),서울특별시 서대문구 홍제동 161-1 홍제역(3호선),126.9442422,37.58870977,정좌표
67,3,무악재,서울특별시 서대문구 통일로 지하361(홍제동),서울특별시 서대문구 홍제동 26-1 무악재역(3호선),126.9503216,37.58238378,정좌표
68,3,독립문,서울특별시 서대문구 통일로 지하247(현저동),서울특별시 서대문구 현저동 101 독립문역(3호선),126.9577497,37.57440969,정좌표
69,3,경복궁(정부서울청사),서울특별시 종로구 사직로 지하130(적선동),서울특별시 종로구 적선동 81-1 경복궁역(3호선),126.9730631,37.57586143,정좌표
70,3,안국,서울특별시 종로구 율곡로 지하62(안국동),서울특별시 종로구 안국동 73-1 안국역(3호선),126.9858231,37.57672107,정좌표
71,3,종로3가,서울특별시 종로구 돈화문로 지하30(묘동),서울특별시 종로구 묘동 20-5 종로3가역(3호선),126.992234,37.57126638,정좌표
72,3,을지로3가,서울특별시 중구 을지로 지하129(을지로3가),서울특별시 중구 을지로3가 282-8 을지로3가역(3호선),126.99265,37.56627471,정좌표
73,3,충무로,서울특별시 중구 퇴계로 지하214(필동2가),서울특별시 중구 필동2가 16-2 충무로역(3호선),126.9942074,37.561289,정좌표
74,3,동대입구,서울특별시 중구 동호로 지하256(장충동2가),서울특별시 중구 장충동2가 199-3 동대입구역(3호선),127.0054601,37.55903039,정좌표
75,3,약수,서울특별시 중구 다산로 지하122(신당동),서울특별시 중구 신당동 369-44 약수역(3호선),127.0108228,37.55455951,정좌표
76,3,금호,서울특별시 성동구 동호로 지하104(금호동4가),서울특별시 성동구 금호동4가 1470 금호역(3호선),127.0158942,37.54811322,정좌표
77,3,옥수,서울특별시 성동구 동호로 21(옥수동),서울특별시 성동구 옥수동 168-1 옥수역(3호선),127.0183297,37.5410464,정좌표
78,3,압구정,서울특별시 강남구 압구정로 지하172(신사동),서울특별시 강남구 신사동 668 압구정역(3호선),127.0284806,37.52643028,정좌표
79,3,신사,서울특별시 강남구 도산대로 지하102(신사동),서울특별시 강남구 신사동 667 신사역(3호선),127.0203268,37.51643188,정좌표
80,3,잠원,서울특별시 서초구 잠원로4길 지하46(잠원동),서울특별시 서초구 잠원동 100-1 잠원역(3호선),127.01122,37.51279922,정좌표
81,3,고속터미널,서울특별시 서초구 신반포로 지하188(반포동),서울특별시 서초구 반포동 19-11 고속터미널역(3호선),127.0044423,37.5046475,정좌표
82,3,"교대(법원, 검찰청)",서울특별시 서초구 서초대로 지하294(서초동),서울특별시 서초구 서초동 1748-4 교대역(3호선),127.0141557,37.49357744,정좌표
83,3,남부터미널(예술의전당),서울특별시 서초구 서초중앙로 지하31(서초동),서울특별시 서초구 서초동 1748-30 남부터미널역(3호선),127.0162068,37.48514011,정좌표
84,3,양재(서초구청),서울특별시 서초구 남부순환로 지하2585(서초동),서울특별시 서초구 서초동 1366-9 양재역(3호선),127.034544,37.48393501,정좌표
85,3,매봉,서울특별시 강남구 남부순환로 지하2744(도곡동),서울특별시 강남구 도곡동 179-2 매봉역(3호선),127.0466143,37.48696095,정좌표
86,3,도곡,서울특별시 강남구 남부순환로 지하2814(도곡동),서울특별시 강남구 도곡동 339-2 도곡역(3호선),127.0553236,37.49086423,정좌표
87,3,대치,서울특별시 강남구 남부순환로 지하2952(대치동),서울특별시 강남구 대치동 317-3 대치역(3호선),127.0634297,37.494563,정좌표
88,3,학여울,서울특별시 강남구 남부순환로 지하3104(대치동),서울특별시 강남구 대치동 514-3 학여울역(3호선),127.0717194,37.49671722,정좌표
89,3,대청,서울특별시 강남구 일원로 지하2(일원동),서울특별시 강남구 일원동 700-9 대청역(3호선),127.0794941,37.49372225,정좌표
90,3,일원,서울특별시 강남구 일원로 지하121(일원동),서울특별시 강남구 일원동 717 일원역(3호선),127.0844515,37.48407269,정좌표
91,3,수서,서울특별시 강남구 광평로 지하270(수서동),서울특별시 강남구 수서동 728 수서역(3호선),127.1018599,37.48738989,정좌표
92,3,가락시장,서울특별시 송파구 송파대로 지하257(가락동),서울특별시 송파구 가락동 184-23 가락시장역(3호선),127.118486,37.49274359,정좌표
93,3,경찰병원,서울특별시 송파구 중대로 지하149(가락동),서울특별시 송파구 가락동 10-15 경찰병원역(3호선),127.1240671,37.49560195,정좌표
94,3,오금,서울특별시 송파구 오금로 지하321(오금동),서울특별시 송파구 오금동 44-2 오금역(3호선),127.1278796,37.50226607,정좌표
95,4,당고개,서울특별시 노원구 상계로 305(상계동),서울특별시 노원구 상계동 111 당고개역(4호선),127.0790107,37.67029223,정좌표
96,4,상계,서울특별시 노원구 상계로 182(상계동),서울특별시 노원구 상계동 156-203 상계역(4호선),127.0735756,37.66090333,정좌표
97,4,노원,서울특별시 노원구 상계로 69-1(상계동),서울특별시 노원구 상계동 602-5 노원역(4호선),127.0630302,37.65626792,정좌표
98,4,창동,서울특별시 도봉구 마들로11길 77(창동),서울특별시 도봉구 창동 135-1 창동역(4호선),127.0477154,37.65321776,정좌표
99,4,쌍문,서울특별시 도봉구 도봉로 지하 486-1(창동),서울특별시 도봉구 창동 703-4 쌍문역(4호선),127.0348798,37.64884829,정좌표
100,4,수유(강북구청),서울특별시 강북구 도봉로 지하338(수유동),서울특별시 강북구 수유동 140 수유역(4호선),127.0253567,37.63774528,정좌표
101,4,미아(서울사이버대학),서울특별시 강북구 도봉로 지하198(미아동),서울특별시 강북구 미아동 194-1 미아역(4호선),127.0261029,37.62644324,정좌표
102,4,미아사거리 ,서울특별시 강북구 도봉로 지하50(미아동),서울특별시 강북구 미아동 66-1 미아사거리역(4호선),127.0300983,37.61328612,정좌표
103,4,길음,서울특별시 성북구 동소문로 지하248(길음동),서울특별시 성북구 길음동 877-66 길음역(4호선),127.0236428,37.60294889,정좌표
104,4,성신여대입구(돈암),서울특별시 성북구 동소문로 지하102(동선동4가),서울특별시 성북구 동선동4가 1 성신여대입구역(4호선),127.0164776,37.59271762,정좌표
105,4,한성대입구(삼선교),서울특별시 성북구 삼선교로 지하1(삼선동1가),서울특별시 성북구 삼선동1가 14 한성대입구역(4호선),127.0059504,37.58839499,정좌표
106,4,혜화,서울특별시 종로구 대학로 지하120(명륜4가),서울특별시 종로구 명륜4가 96-5 혜화역(4호선),127.0022907,37.58187298,정좌표
107,4,동대문,서울특별시 종로구 율곡로 지하308(종로6가),서울특별시 종로구 종로6가 287-1 동대문역(4호선),127.0095464,37.57041119,정좌표
108,4,동대문역사문화공원(DDP),서울특별시 중구 장충단로 지하230(광희동2가),서울특별시 중구 광희동2가 9 동대문역사문화공원역(4호선),127.007551,37.56507934,정좌표
109,4,충무로,서울특별시 중구 퇴계로 지하214(필동2가),서울특별시 중구 필동2가 16-2 충무로역(4호선),126.9942074,37.561289,정좌표
110,4,명동,서울특별시 중구 퇴계로 지하126(충무로2가),서울특별시 중구 충무로2가 109-2 명동역(4호선),126.9859474,37.56090973,정좌표
111,4,회현(남대문시장),서울특별시 중구 퇴계로 지하54(남창동),서울특별시 중구 남창동 64-1 회현역(4호선),126.9782391,37.55853467,정좌표
112,4,서울,서울특별시 용산구 한강대로 지하392(동자동),서울특별시 용산구 동자동 14-151 서울역 (4호선),126.9728052,37.55319934,정좌표
113,4,숙대입구(갈월),서울특별시 용산구 한강대로 지하306(갈월동),서울특별시 용산구 갈월동 16-7 숙대입구역(4호선),126.9718767,37.5452013,정좌표
114,4,삼각지,서울특별시 용산구 한강대로 지하180(한강로1가),서울특별시 용산구 한강로1가 228-1 삼각지역(4호선),126.9733501,37.53438717,정좌표
115,4,신용산,서울특별시 용산구 한강대로 지하112(한강로2가),서울특별시 용산구 한강로2가 181 신용산역(4호선),126.9682157,37.52961521,정좌표
116,4,이촌(국립중앙박물관),서울특별시 용산구 서빙고로 지하83(용산동5가),서울특별시 용산구 용산동5가 17-112 이촌역(4호선),126.9736832,37.52252018,정좌표
117,4,동작(현충원),서울특별시 동작구 현충로 257(동작동),서울특별시 동작구 동작동 327-1 동작역(4호선),126.9802686,37.50287042,정좌표
118,4,총신대입구(이수),서울특별시 동작구 동작대로 지하117(사당동),서울특별시 동작구 사당동 736-1 총신대입구(이수)역(4호선),126.9822002,37.48755366,정좌표
119,4,사당,서울특별시 동작구  동작대로 지하3(사당동),서울특별시 동작구 사당동 588-44 사당역(4호선),126.9815953,37.47686304,정좌표
120,4,남태령,서울특별시 서초구 과천대로 지하816(방배동),서울특별시 서초구 방배동 2909 남태령역(4호선),126.9886567,37.4648573,정좌표
121,5,방화,서울특별시 강서구 금낭화로 지하132(방화동),서울특별시 강서구 방화동 829-15 방화역(5호선),126.812632,37.57700687,정좌표
122,5,개화산,서울특별시 강서구 양천로 22(방화동),서울특별시 강서구 방화동 846 개화산역(5호선),126.8060013,37.57226877,정좌표
123,5,김포공항,서울특별시 강서구 하늘길 지하77(방화동),서울특별시 강서구 방화동 886 김포공항역(5호선),126.8015704,37.56214422,정좌표
124,5,송정,서울특별시 강서구 공항대로 지하33(공항동),서울특별시 강서구 공항동 29-5 송정역(5호선),126.8110544,37.56147545,정좌표
125,5,마곡,서울특별시 강서구 공항대로 지하163(마곡동),서울특별시 강서구 마곡동 769-3 마곡역(5호선),126.8255482,37.56019811,정좌표
126,5,발산,서울특별시 강서구 공항대로 지하267(마곡동),서울특별시 강서구 마곡동 727-1496 발산역(5호선),126.8373098,37.55902771,정좌표
127,5,우장산,서울특별시 강서구 강서로 지하262(화곡동),서울특별시 강서구 화곡동 1089-3 우장산역(5호선),126.8364087,37.54899972,정좌표
128,5,화곡,서울특별시 강서구 화곡로 지하168(화곡동),서울특별시 강서구 화곡동 1089-54 화곡역(5호선),126.8404949,37.54143095,정좌표
129,5,까치산,서울특별시 강서구 강서로 지하54(화곡동),서울특별시 강서구 화곡동 662-5 까치산역(5호선),126.8466116,37.53195693,정좌표
130,5,신정(은행정),서울특별시 양천구 오목로 지하179(신정동),서울특별시 양천구 신정동 1090 신정역(5호선),126.8572621,37.52543103,정좌표
131,5,목동,서울특별시 양천구 오목로 지하245(목동),서울특별시 양천구 목동 926-3 목동역(5호선),126.8647321,37.52618126,정좌표
132,5,오목교(목동운동장앞),서울특별시 양천구 오목로 지하342(목동),서울특별시 양천구 목동 406-30 오목교역(5호선),126.8753606,37.52446122,정좌표
133,5,양평,서울특별시 영등포구 양산로 지하21(양평동2가),서울특별시 영등포구 양평동2가 33-79 양평역(5호선),126.8868657,37.52551182,정좌표
134,5,영등포구청,서울특별시 영등포구 양산로 지하116(당산동3가),서울특별시 영등포구 당산동3가 556-1 영등포구청역(5호선),126.895289,37.52422693,정좌표
135,5,영등포시장,서울특별시 영등포구 양산로 지하200(영등포동5가),서울특별시 영등포구 영등포동5가 62-1 영등포시장역(5호선),126.9049592,37.52273474,정좌표
136,5,신길,서울특별시 영등포구 경인로114가길 지하9(영등포동1가),서울특별시 영등포구 영등포동1가 35 신길역(5호선),126.9143351,37.51766527,정좌표
137,5,여의도,서울특별시 영등포구 여의나루로 지하40(여의도동),서울특별시 영등포구 여의도동 3 여의도역(5호선),126.9244846,37.52184218,정좌표
138,5,여의나루,서울특별시 영등포구 여의동로 지하343(여의도동),서울특별시 영등포구 여의도동 84-4 여의나루역(5호선),126.9328645,37.52708586,정좌표
139,5,마포,서울특별시 마포구 마포대로 지하33(도화동),서울특별시 마포구 도화동 160 마포역(5호선),126.945448,37.53998535,정좌표
140,5,공덕,서울특별시 마포구 마포대로 지하100(공덕동),서울특별시 마포구 공덕동 423-29 공덕역(5호선),126.9513638,37.5445264,정좌표
141,5,애오개,서울특별시 마포구 마포대로 지하210(아현동),서울특별시 마포구 아현동 612 애오개역(5호선),126.956613,37.55336253,정좌표
142,5,충정로(경기대입구),서울특별시 서대문구 충정로 지하 28-1(충정로3가),서울특별시 서대문구 충정로3가 248-1 충정로역(5호선),126.9633731,37.56099298,정좌표
143,5,서대문,서울특별시 종로구 통일로 지하126(평동),서울특별시 종로구 평동 210 서대문역(5호선),126.9666375,37.56585585,정좌표
144,5,광화문(세종문화회관),서울특별시 종로구 세종대로 지하172(세종로),서울특별시 종로구 세종로 1-68 5호선 광화문역(5호선),126.9767882,37.57162257,정좌표
145,5,종로3가(탑골공원),서울특별시 종로구 돈화문로11길 지하 26(돈의동),서울특별시 종로구 돈의동 39-1 5호선 종로3가역(5호선),126.9900622,37.57257073,정좌표
146,5,을지로4가,서울특별시 중구 창경궁로 지하51(주교동),서울특별시 중구 주교동 191 을지로4가역(5호선),126.9980599,37.56752475,정좌표
147,5,동대문역사문화공원(DDP),서울특별시 중구 마른내로 지하162(광희동1가),서울특별시 중구 광희동1가 235-6 동대문역사문화공원역(5호선),127.0059167,37.56457785,정좌표
148,5,청구,서울특별시 중구 청구로 지하77(신당동),서울특별시 중구 신당동 295-2 청구역(5호선),127.0138063,37.56029423,정좌표
149,5,신금호,서울특별시 성동구 금호로 지하154(금호동2가),서울특별시 성동구 금호동2가 223-1 신금호역(5호선),127.0200643,37.55453317,정좌표
150,5,행당,서울특별시 성동구 행당로 지하89(행당동),서울특별시 성동구 행당동 317-241 행당역(5호선),127.0292317,37.55727755,정좌표
151,5,왕십리(성동구청),서울특별시 성동구 왕십리로 지하300(행당동),서울특별시 성동구 행당동 192 왕십리역(5호선),127.0366557,37.5612222,정좌표
152,5,마장,서울특별시 성동구 마장로 지하296(마장동),서울특별시 성동구 마장동 804 마장역(5호선),127.0431637,37.56628268,정좌표
153,5,답십리,서울특별시 성동구 천호대로 지하300(용답동),서울특별시 성동구 용답동 99 답십리역(5호선),127.0531811,37.56644613,정좌표
154,5,장한평,서울특별시 동대문구 천호대로 지하405(장안동),서울특별시 동대문구 장안동 472-3 장한평역(5호선),127.0641786,37.5620142,정좌표
155,5,군자(능동),서울특별시 광진구 천호대로 지하550(능동),서울특별시 광진구 능동 275-5 군자(능동)역(5호선),127.0790171,37.55736299,정좌표
156,5,아차산(어린이대공원후문),서울특별시 광진구 천호대로 지하657(능동),서울특별시 광진구 능동 256-16 5호선 아차산역(5호선),127.0893708,37.55240145,정좌표
157,5,광나루(장신대),서울특별시 광진구 아차산로 지하571(광장동),서울특별시 광진구 광장동 237 광나루역(5호선),127.1036861,37.54527902,정좌표
158,5,천호(풍납토성),서울특별시 강동구 천호대로 지하997(천호동),서울특별시 강동구 천호동 455 천호역(5호선),127.1237425,37.53857888,정좌표
159,5,강동,서울특별시 강동구 천호대로 지하1097(천호동),서울특별시 강동구 천호동 447 강동역(5호선),127.1335295,37.53552017,정좌표
160,5,길동,서울특별시 강동구 양재대로 지하1480(길동),서울특별시 강동구 길동 378 길동역(5호선),127.1399992,37.53781149,정좌표
161,5,굽은다리(강동구민회관앞),서울특별시 강동구 양재대로 지하1572(명일동),서울특별시 강동구 명일동 345-12 굽은다리역(5호선),127.1429709,37.54573108,정좌표
162,5,명일,서울특별시 강동구 양재대로 지하1632(명일동),서울특별시 강동구 명일동 312 명일역(5호선),127.144001,37.55125949,정좌표
163,5,고덕,서울특별시 강동구 고덕로 지하253(고덕동),서울특별시 강동구 고덕동 310 고덕역(5호선),127.1539496,37.55504772,정좌표
164,5,상일동,서울특별시 강동구 고덕로 지하359(상일동),서울특별시 강동구 상일동 148 상일동역(5호선),127.1658288,37.55666381,정좌표
165,5,둔촌동,서울특별시 강동구 양재대로 지하1369(둔촌동),서울특별시 강동구 둔촌동 416 둔촌동역(5호선),127.1361902,37.52764152,정좌표
166,5,올림픽공원(한국체대),서울특별시 송파구 양재대로 지하1233(방이동),서울특별시 송파구 방이동 89-28 올림픽공원역(5호선),127.1306004,37.51608795,정좌표
167,5,방이,서울특별시 송파구 양재대로 지하1127(방이동),서울특별시 송파구 방이동 217-2 방이역(5호선),127.1258549,37.50855685,정좌표
168,5,오금,서울특별시 송파구 오금로 지하321(오금동),서울특별시 송파구 오금동 44-2 오금역(5호선),127.1278796,37.50226607,정좌표
169,5,개롱,서울특별시 송파구 오금로 지하402(가락동),서울특별시 송파구 가락동 165-2 개롱역(5호선),127.1351591,37.49781468,정좌표
170,5,거여,서울특별시 송파구 오금로 지하499(거여동),서울특별시 송파구 거여동 20-14 거여역(5호선),127.1440327,37.49320758,정좌표
171,5,마천,서울특별시 송파구 마천로57길 지하7(마천동),서울특별시 송파구 마천동 307-4 마천역(5호선),127.1523201,37.49466993,정좌표
172,5,강일,서울특별시 강동구 고덕로 지하456(강일동),서울특별시 강동구 상일동 산73 강일역(5호선),127.1759377,37.55752691,정좌표
173,5,미사,경기도 하남시 미사강변동로 지하90(망월동),경기도 하남시 망월동 1122 미사역(5호선),127.1926971,37.56310369,정좌표
174,5,하남풍산,경기도 하남시 덕풍서로 지하50(덕풍동),경기도 하남시 덕풍동 727-3 하남풍산역(5호선),127.2038706,37.55205694,정좌표
175,5,하남시청(덕풍 신장),경기도 하남시 하남대로 지하820(덕풍동),경기도 하남시 덕풍동 405-1 하남시청(덕풍신장)역(5호선),127.2068847,37.54217316,정좌표
176,5,하남검단산,경기도 하남시 대청로 지하100(창우동),경기도 하남시 창우동 526 하남검단산역(5호선),127.2234446,37.53975916,정좌표
177,6,응암,서울특별시 은평구 증산로 지하477(신사동),서울특별시 은평구 신사동 22-15 응암역(6호선),126.9155113,37.59874037,정좌표
178,6,역촌,서울특별시 은평구 서오릉로 지하63(녹번동),서울특별시 은평구 녹번동 153-31 역촌역(6호선),126.9229635,37.60603174,정좌표
179,6,불광,서울특별시 은평구 통일로 지하723-1(대조동),서울특별시 은평구 대조동 13-10 불광역(6호선),126.9299856,37.61020634,정좌표
180,6,독바위,서울특별시 은평구 불광로 지하129-1(불광동),서울특별시 은평구 불광동 13-33 독바위역(6호선),126.9327915,37.61836796,정좌표
181,6,연신내,서울특별시 은평구 통일로 지하849(갈현동),서울특별시 은평구 갈현동 397 연신내역(6호선),126.9211667,37.61896948,정좌표
182,6,구산,서울특별시 은평구 연서로 지하137-1(구산동),서울특별시 은평구 구산동 1 구산역(6호선),126.9171624,37.61117799,정좌표
183,6,새절(신사),서울특별시 은평구 증산로 지하400(신사동),서울특별시 은평구 신사동 337-5 새절역(6호선),126.9139165,37.59183378,정좌표
184,6,증산(명지대앞),서울특별시 은평구 증산로 지하306(증산동),서울특별시 은평구 증산동 199-8 증산역(6호선),126.9100569,37.58419489,정좌표
185,6,디지털미디어시티,서울특별시 은평구 수색로 지하175(증산동),서울특별시 은평구 증산동 223-25 디지털미디어시티역(6호선),126.9019293,37.57716183,정좌표
186,6,월드컵경기장(성산),서울특별시 마포구 월드컵로 지하240(성산동),서울특별시 마포구 성산동 420 월드컵경기장역(6호선),126.8990337,37.56994315,정좌표
187,6,마포구청,서울특별시 마포구 월드컵로 지하190(성산동),서울특별시 마포구 성산동 592 마포구청역(6호선),126.9033569,37.56342583,정좌표
188,6,망원,서울특별시 마포구 월드컵로 지하77(망원동),서울특별시 마포구 망원동 378 망원역(6호선),126.9100339,37.55605708,정좌표
189,6,합정,서울특별시 마포구 양화로 지하45(합정동),서울특별시 마포구 합정동 414 합정역(6호선),126.9136776,37.55016583,정좌표
190,6,상수,서울특별시 마포구 독막로 지하85(상수동),서울특별시 마포구 상수동 309-10 상수역(6호선),126.9224096,37.5477718,정좌표
191,6,광흥창(서강),서울특별시 마포구 독막로 지하165(창전동),서울특별시 마포구 창전동 145-17 광흥창역(6호선),126.9319395,37.54748562,정좌표
192,6,대흥(서강대앞),서울특별시 마포구 대흥로 지하85(대흥동),서울특별시 마포구 대흥동 128-1 대흥역(6호선),126.9415065,37.54770035,정좌표
193,6,공덕,서울특별시 마포구 백범로 지하200(공덕동),서울특별시 마포구 공덕동 439 공덕역(6호선),126.9519477,37.54352754,정좌표
194,6,효창공원앞,서울특별시 용산구 백범로 지하287(효창동),서울특별시 용산구 효창동 80 효창공원앞역(6호선),126.9612216,37.53960085,정좌표
195,6,삼각지,서울특별시 용산구 한강대로 지하185(한강로1가),서울특별시 용산구 한강로1가 228-1 삼각지역(6호선),126.9732145,37.53526322,정좌표
196,6,녹사평(용산구청),서울특별시 용산구 녹사평대로 지하195(용산동4가),서울특별시 용산구 용산동4가 4 녹사평역(6호선),126.9870284,37.53483162,정좌표
197,6,이태원,서울특별시 용산구 이태원로 지하177(이태원동),서울특별시 용산구 이태원동 119-23 이태원역(6호선),126.9937229,37.53448528,정좌표
198,6,한강진,서울특별시 용산구 이태원로 지하287(한남동),서울특별시 용산구 한남동 726-494 한강진역(6호선),127.0017473,37.54029374,정좌표
199,6,버티고개,서울특별시 중구 다산로 지하38(신당동),서울특별시 중구 신당동 366-454 버티고개역(6호선),127.0068858,37.54799599,정좌표
200,6,약수,서울특별시 중구 다산로 지하115(신당동),서울특별시 중구 신당동 369-2 약수역(6호선),127.0101203,37.55389185,정좌표
201,6,청구,서울특별시 중구 청구로 지하77(신당동),서울특별시 중구 신당동 295-2 청구역(6호선),127.0138063,37.56029423,정좌표
202,6,신당,서울특별시 중구 다산로 지하260(흥인동),서울특별시 중구 흥인동 162-1 신당역(6호선),127.0161532,37.56627422,정좌표
203,6,동묘앞,서울특별시 종로구 지봉로 지하24(숭인동),서울특별시 종로구 숭인동 316-3 동묘앞역(6호선),127.0156781,37.57220089,정좌표
204,6,창신,서울특별시 종로구 지봉로 지하112(창신동),서울특별시 종로구 창신동 20-8 창신역(6호선),127.0152113,37.58001698,정좌표
205,6,보문,서울특별시 성북구 보문로 지하116(보문동1가),서울특별시 성북구 보문동1가 127-1 보문역(6호선),127.0194893,37.58554963,정좌표
206,6,안암(고대병원앞),서울특별시 성북구 고려대로 지하89(안암동5가),서울특별시 성북구 안암동5가 146-1 안암역(6호선),127.0292126,37.58628059,정좌표
207,6,고려대(종암),서울특별시 성북구 종암로 지하1(종암동),서울특별시 성북구 종암동 29-18 고려대역(6호선),127.0362851,37.59064974,정좌표
208,6,월곡(동덕여대),서울특별시 성북구 월곡로 지하107(하월곡동),서울특별시 성북구 하월곡동 35-1 월곡역(6호선),127.0411844,37.60142076,정좌표
209,6,상월곡(한국과학기술연구원),서울특별시 성북구 화랑로 지하157(상월곡동),서울특별시 성북구 상월곡동 26-1 상월곡역(6호선),127.048327,37.60626482,정좌표
210,6,돌곶이,서울특별시 성북구 화랑로 지하243(석관동),서울특별시 성북구 석관동 349-8 돌곶이역(6호선),127.0564254,37.61055105,정좌표
211,6,석계,서울특별시 노원구 화랑로 지하 347-1(월계동) ,서울특별시 노원구 월계동 25-2 석계역(6호선),127.0661184,37.61504756,정좌표
212,6,태릉입구,서울특별시 노원구 동일로 지하 992-1(공릉동),서울특별시 노원구 공릉동 616-4 태릉입구역(6호선),127.0749954,37.61790557,정좌표
213,6,화랑대(서울여대입구),서울특별시 노원구 화랑로 지하510(공릉동),서울특별시 노원구 공릉동 285-2 화랑대역(6호선),127.0837448,37.61989501,정좌표
214,6,봉화산(서울의료원),서울특별시 중랑구 신내로 지하232(신내동),서울특별시 중랑구 신내동 643-1 봉화산역(6호선),127.0907579,37.61765375,정좌표
215,6,신내,서울특별시 중랑구 용마산로136길 33 신내차량기지,서울특별시 중랑구 신내동 19 신내역(6호선),127.1021816,37.61306216,정좌표
216,7,장암,경기도 의정부시 동일로 121(장암동),경기도 의정부시 장암동 160-8 장암역(7호선),127.053135,37.70011907,정좌표
217,7,도봉산,서울특별시 도봉구 도봉로 964-40(도봉동),서울특별시 도봉구 도봉동 38-3 도봉산역(7호선),127.0465354,37.68913253,정좌표
218,7,수락산,서울특별시 노원구 동일로 지하1662(상계동),서울특별시 노원구 상계동 1132-9 수락산역(7호선),127.0553743,37.67762581,정좌표
219,7,마들,서울특별시 노원구 동일로 지하1530-1(상계동),서울특별시 노원구 상계동 650 마들역(7호선),127.0576878,37.66508677,정좌표
220,7,노원,서울특별시 노원구 동일로 지하1409(상계동),서울특별시 노원구 상계동 729 노원역(7호선),127.060517,37.65469477,정좌표
221,7,중계,서울특별시 노원구 동일로 지하1308-1(중계동),서울특별시 노원구 중계동 503-3 중계역(7호선),127.0642467,37.64489088,정좌표
222,7,하계,서울특별시 노원구 동일로 지하1196(하계동),서울특별시 노원구 하계동 273-5 하계역(7호선),127.0679888,37.63645225,정좌표
223,7,공릉(서울과학기술대),서울특별시 노원구 동일로 지하1074(공릉동),서울특별시 노원구 공릉동 385-4 공릉역(7호선),127.0730053,37.6254765,정좌표
224,7,태릉입구,서울특별시 노원구 동일로 지하 992-1(공릉동),서울특별시 노원구 공릉동 616-4 태릉입구역(7호선),127.0749954,37.61790557,정좌표
225,7,먹골,서울특별시 중랑구 동일로 지하901(묵동),서울특별시 중랑구 묵동 189-5 먹골역(7호선),127.0777646,37.61062482,정좌표
226,7,중화,서울특별시 중랑구 동일로 지하797(중화동),서울특별시 중랑구 중화동 50-3 중화역(7호선),127.0794697,37.60158024,정좌표
227,7,상봉(시외버스터미널),서울특별시 중랑구 망우로 297(상봉동),서울특별시 중랑구 상봉동 100-9 상봉역(7호선),127.0854366,37.59671389,정좌표
228,7,면목,서울특별시 중랑구 면목로 지하407(면목동) ,서울특별시 중랑구 면목동 282-6 면목역(7호선),127.0875676,37.58838391,정좌표
229,7,사가정,서울특별시 중랑구 사가정로 지하393(면목동),서울특별시 중랑구 면목동 495 사가정역(7호선),127.0884391,37.58079526,정좌표
230,7,용마산(용마폭포공원),서울특별시 중랑구 용마산로 지하227(면목동),서울특별시 중랑구 면목동 1316-5 용마산역(7호선),127.0870381,37.57403025,정좌표
231,7,중곡,서울특별시 광진구 능동로 지하417(중곡동),서울특별시 광진구 중곡동 273-2 7호선 중곡역(7호선),127.0788916,37.55274157,정좌표
232,7,군자(능동),서울특별시 광진구 천호대로 지하550(능동),서울특별시 광진구 능동 275-5 군자(능동)역(7호선),127.0790171,37.55736299,정좌표
233,7,어린이대공원(세종대),서울특별시 광진구 능동로 지하210(화양동),서울특별시 광진구 화양동 164-1 어린이대공원역(7호선),127.0800663,37.55436558,정좌표
234,7,건대입구,서울특별시 광진구 능동로 지하110(화양동),서울특별시 광진구 화양동 6-3 건대입구역(7호선),127.0710462,37.54084189,정좌표
235,7,뚝섬유원지,서울특별시 광진구 능동로 10(자양동),서울특별시 광진구 자양동 73-2 뚝섬유원지역(7호선),127.0667177,37.5315872,정좌표
236,7,청담,서울특별시 강남구 학동로 지하508(청담동),서울특별시 강남구 청담동 77-76 청담역(7호선),127.0536447,37.51944115,정좌표
237,7,강남구청,서울특별시 강남구 학동로 지하346(삼성동),서울특별시 강남구 삼성동 111-44 강남구청역(7호선),127.0413011,37.51718887,정좌표
238,7,학동,서울특별시 강남구 학동로 지하180(논현동),서울특별시 강남구 논현동 279-67 학동역(7호선),127.0314635,37.51420625,정좌표
239,7,논현,서울특별시 강남구 학동로 지하102(논현동),서울특별시 강남구 논현동 279-67 논현역(7호선),127.0216573,37.51119805,정좌표
240,7,반포,서울특별시 서초구 신반포로 지하241(잠원동),서울특별시 서초구 잠원동 103 반포역(7호선),127.0114973,37.50812683,정좌표
241,7,고속터미널,서울특별시 서초구 신반포로 지하188(반포동),서울특별시 서초구 반포동 19-11 고속터미널역(7호선),127.0044423,37.5046475,정좌표
242,7,내방,서울특별시 서초구 서초대로 지하103(방배동),서울특별시 서초구 방배동 874-16 내방역(7호선),126.9931901,37.48753371,정좌표
243,7,이수,서울특별시 동작구 사당로 지하310(사당동),서울특별시 동작구 사당동 144-4 이수역(7호선),126.9810215,37.48501567,정좌표
244,7,남성,서울특별시 동작구 사당로 지하218(사당동),서울특별시 동작구 사당동 산25-33 남성역(7호선),126.9717066,37.48444366,정좌표
245,7,숭실대입구(살피재),서울특별시 동작구 상도로 지하378(상도동),서울특별시 동작구 상도동 514 숭실대입구역(7호선),126.95406,37.4958141,정좌표
246,7,상도,서울특별시 동작구 상도로 지하272(상도1동),서울특별시 동작구 상도1동 702-1 상도역(중대입구역)(7호선),126.9477001,37.50320721,정좌표
247,7,장승배기,서울특별시 동작구 상도로 지하188(상도동) ,서울특별시 동작구 상도동 26-20 장승배기역(7호선),126.9387442,37.50466458,정좌표
248,7,신대방삼거리,서울특별시 동작구 상도로 지하76(대방동),서울특별시 동작구 대방동 406-10 신대방삼거리역(7호선),126.9282238,37.4997231,정좌표
249,7,보라매,서울특별시 동작구 상도로 지하2(대방동),서울특별시 동작구 대방동 466-51 보라매역(7호선),126.9204897,37.49991075,정좌표
250,7,신풍,서울특별시 영등포구 신풍로 지하27(신길동),서울특별시 영등포구 신길동 3599 신풍역(7호선),126.9098415,37.50011726,정좌표
251,7,대림(구로구청),서울특별시 영등포구 도림로 지하137(대림동),서울특별시 영등포구 대림동 1050-17 대림역(7호선),126.8966119,37.49274378,정좌표
252,7,남구로,서울특별시 구로구 도림로 지하7(구로동) ,서울특별시 구로구 구로동 801-95 남구로역(7호선),126.8863332,37.48532343,정좌표
253,7,가산디지털단지,서울특별시 금천구 벚꽃로 309(가산동),서울특별시 금천구 가산동 468-4 가산디지털단지역(7호선),126.8825591,37.48159577,정좌표
254,7,철산,경기도 광명시 철산로 지하13(철산동),경기도 광명시 철산동 526 철산역(7호선),126.8680035,37.47609824,정좌표
255,7,광명사거리,경기도 광명시 오리로 지하980(광명동),경기도 광명시 광명동 158-211 광명사거리역(7호선),126.8547031,37.47933549,정좌표
256,7,천왕,서울특별시 구로구 오리로 지하1154(천왕동),서울특별시 구로구 천왕동 14-25 천왕역(7호선),126.8387138,37.48682179,정좌표
257,7,온수(성공회대입구),서울특별시 구로구 경인로3길 지하64(온수동),서울특별시 구로구 온수동 119 온수역(7호선),126.8233813,37.49215101,정좌표
258,8,암사,서울특별시 강동구 올림픽로 지하776(암사동),서울특별시 강동구 암사동 501 암사역(8호선),127.1275399,37.55013944,정좌표
259,8,천호(풍납토성),서울특별시 강동구 천호대로 지하997(천호동),서울특별시 강동구 천호동 455 천호역(8호선),127.1237425,37.53857888,정좌표
260,8,강동구청,서울특별시 강동구 올림픽로 지하550(성내동),서울특별시 강동구 성내동 319 강동구청역(8호선),127.1205756,37.53067395,정좌표
261,8,몽촌토성(평화의문),서울특별시 송파구 올림픽로 지하383(신천동),서울특별시 송파구 신천동 19 몽촌토성역(8호선),127.1124305,37.51762513,정좌표
262,8,잠실(송파구청),서울특별시 송파구 올림픽로 305(신천동),서울특별시 송파구 신천동 7-4 잠실역(8호선),127.1042156,37.51497611,정좌표
263,8,석촌,서울특별시 송파구 송파대로 지하439(석촌동),서울특별시 송파구 석촌동 209 석촌역(8호선),127.1063458,37.50594926,정좌표
264,8,송파,서울특별시 송파구 송파대로 지하354(가락동),서울특별시 송파구 가락동 459-4 송파역(8호선),127.1121803,37.49968725,정좌표
265,8,가락시장,서울특별시 송파구 송파대로 지하257(가락동),서울특별시 송파구 가락동 184-23 가락시장역(8호선),127.118486,37.49274359,정좌표
266,8,문정,서울특별시 송파구 송파대로 지하179(문정동),서울특별시 송파구 문정동 119-4 문정역(8호선),127.1222913,37.48626384,정좌표
267,8,장지,서울특별시 송파구 송파대로 지하82(장지동),서울특별시 송파구 장지동 201-5 장지역(8호선),127.1264245,37.47811963,정좌표
268,8,복정,서울특별시 송파구 송파대로 지하6(장지동),서울특별시 송파구 장지동 596-21 복정역(8호선),127.126772,37.47105736,정좌표
269,8,남위례,경기도 성남시 수정구 공원로 601(복정동),경기도 성남시 수정구 복정동 57 남위례역(8호선),127.152675,37.44228352,인근좌표
270,8,산성,경기도 성남시 수정구 수정로 지하365(신흥동),경기도 성남시 수정구 신흥동 7 산성역(8호선),127.1499442,37.45652495,정좌표
271,8,남한산성입구(성남법원 검찰청),경기도 성남시 수정구 산성대로 지하445(단대동),경기도 성남시 수정구 단대동 96 남한산성입구역(8호선),127.1598022,37.45156808,정좌표
272,8,단대오거리,경기도 성남시 수정구 산성대로 지하365(신흥동),경기도 성남시 수정구 신흥동 2467 단대오거리역(8호선),127.1566878,37.44514358,정좌표
273,8,신흥,경기도 성남시 수정구 산성대로 지하280(신흥동),경기도 성남시 수정구 신흥동 2467 신흥역(8호선),127.1481073,37.44118386,정좌표
274,8,수진,경기도 성남시 수정구 산성대로 지하200(수진동),경기도 성남시 수정구 수진동 2205-1 수진역(8호선),127.1403519,37.43745921,정좌표
275,8,모란,경기도 성남시 수정구 산성대로 지하100(수진동),경기도 성남시 수정구 수진동 4518 모란역(8호선),127.129551,37.43384975,정좌표
276,9,언주,서울특별시 강남구 봉은사로 지하201(논현동),서울특별시 강남구 논현동 279-165 언주역(9호선),127.0342849,37.50744596,정좌표
277,9,선정릉,서울특별시 강남구 선릉로 지하580(삼성동),서울특별시 강남구 삼성동 111-114 선정릉역(9호선),127.043641,37.51085355,정좌표
278,9,삼성중앙,서울특별시 강남구 봉은사로 지하501(삼성동),서울특별시 강남구 삼성동 111-147 삼성중앙역(9호선),127.052705,37.51288248,정좌표
279,9,봉은사,서울특별시 강남구 봉은사로 지하601(삼성동),서울특별시 강남구 삼성동 172 봉은사역(9호선),127.0608922,37.51436096,정좌표
280,9,종합운동장,서울특별시 송파구 올림픽로 49(잠실동),서울특별시 송파구 잠실동 123 종합운동장역(9호선),127.0760084,37.51148119,정좌표
281,9,삼전,서울특별시 송파구 백제고분로 지하189(잠실동),서울특별시 송파구 잠실동 347 삼전역(9호선),127.0874454,37.50450235,정좌표
282,9,석촌고분,서울특별시 송파구 백제고분로 지하274(삼전동),서울특별시 송파구 삼전동 157-1 석촌고분역(9호선),127.0967035,37.50247021,정좌표
283,9,석촌,서울특별시 송파구 송파대로 지하439(석촌동),서울특별시 송파구 석촌동 209 석촌역(9호선),127.1063458,37.50594926,정좌표
284,9,송파나루,서울특별시 송파구 백제고분로 지하446(방이동),서울특별시 송파구 방이동 2 송파나루역(9호선),127.1127433,37.51045702,정좌표
285,9,한성백제,서울특별시 송파구 위례성대로 지하29(방이동),서울특별시 송파구 방이동 88-17 한성백제역(9호선),127.116303,37.51646484,정좌표
286,9,올림픽공원(한국체대),서울특별시 송파구 양재대로 지하1233(방이동),서울특별시 송파구 방이동 89-28 올림픽공원역(9호선),127.1306004,37.51608795,정좌표
287,9,둔촌오륜,서울특별시 강동구 강동대로 지하303(둔촌동),서울특별시 강동구 둔촌동 227-7 둔촌오륜역(9호선),127.1384276,37.51942467,정좌표
288,9,중앙보훈병원,서울특별시 강동구 동남로 지하625(둔촌동),서울특별시 강동구 둔촌동 8-1 중앙보훈병원역(9호선),127.1485417,37.52889576,정좌표
